{"type":"FeatureCollection","features":[{"type":"Feature","geometry":{"type":"Point","coordinates":[-61.51995600000001,10.663007]},"properties":{"name":"Woodbrook Health Centre","description":"Tragarete Road, Woodbrook<br>(868)-622-2045"}},{"type":"Feature","geometry":{"type":"Point","coordinates":[-61.508196999999996,10.662058]},"properties":{"name":"Port-of-Spain General Hospital","description":"Upper Charlotte Street, Port-of-Spain<br>(868)-623-2951"}},{"type":"Feature","geometry":{"type":"Point","coordinates":[-61.506840000000004,10.659369]},"properties":{"name":"Oxford Street Enhanced Health Centre","description":"Corner Observatory Street and Oxford Street, Port-of-Spain<br>(868)-623-6741"}},{"type":"Feature","geometry":{"type":"Point","coordinates":[-61.538356,10.67365]},"properties":{"name":"St. James District Health Facility"}},{"type":"Feature","geometry":{"type":"Point","coordinates":[-61.539434,10.673898]},"properties":{"name":"National Radiotherapy Centre"}},{"type":"Feature","geometry":{"type":"Point","coordinates":[-61.506668,10.681584]},"properties":{"name":"St. Ann's Hospital (Mental Health)"}},{"type":"Feature","geometry":{"type":"Point","coordinates":[-61.46909600000001,10.279208]},"properties":{"name":"San Fernando General Hospital"}},{"type":"Feature","geometry":{"type":"Point","coordinates":[-61.450701,10.421474]},"properties":{"name":"Couva District Health Facility"}},{"type":"Feature","geometry":{"type":"Point","coordinates":[-61.42396000000001,10.646817]},"properties":{"name":"Eric Williams Medical Sciences Complex"}},{"type":"Feature","geometry":{"type":"Point","coordinates":[-61.421771,10.648925]},"properties":{"name":"Mt. Hope Maternity Hospital"}},{"type":"Feature","geometry":{"type":"Point","coordinates":[-61.399707,10.514121000000001]},"properties":{"name":"Chaguanas District Health Facility","description":"Main Road and Galt St., Chaguanas<br>(868)-665-8958"}},{"type":"Feature","geometry":{"type":"Point","coordinates":[-61.507156,10.65454]},"properties":{"name":"George Street Health Centre","description":"George Street, Port-of-Spain<br>(868)-623-5155"}},{"type":"Feature","geometry":{"type":"Point","coordinates":[-61.449851,10.267068]},"properties":{"name":"Pleasantville Health Centre","description":"Chaconia Avenue and Prince Albert Streets, Pleasantville<br>(868)-653-0521"}},{"type":"Feature","geometry":{"type":"Point","coordinates":[-61.444119,10.303432]},"properties":{"name":"Marabella Health Centre","description":"Market Street, Marabella<br>(868)-658-0470"}},{"type":"Feature","geometry":{"type":"Point","coordinates":[-61.480383,10.252251]},"properties":{"name":"La Romain Health Centre","description":"Zaida Lane, La Romain<br>(868)-657-1673"}},{"type":"Feature","geometry":{"type":"Point","coordinates":[-61.379470000000005,10.315816]},"properties":{"name":"Williamsville Health Centre","description":"Main Road, Williamsville<br>(868)-655-1751"}},{"type":"Feature","geometry":{"type":"Point","coordinates":[-61.420033,10.464006000000001]},"properties":{"name":"Freeport Health Centre","description":"St. Mary's Junction, Freeport<br>(868)-673-0021"}},{"type":"Feature","geometry":{"type":"Point","coordinates":[-61.285102,10.636246]},"properties":{"name":"Arima District Health Facility"}},{"type":"Feature","geometry":{"type":"Point","coordinates":[-61.55110200000001,10.69812]},"properties":{"name":"Petit Valley Health Centre","description":"Simeon Road, Petit Valley<br>(868)-637-3284"}},{"type":"Feature","geometry":{"type":"Point","coordinates":[-61.59501,10.68559]},"properties":{"name":"Carenage Health Centre","description":"Constabulary Street, Carenage<br>(868)-632-1860"}},{"type":"Feature","geometry":{"type":"Point","coordinates":[-61.050934,10.827963]},"properties":{"name":"Grande Riviere Health Centre","description":"Grande Riviere<br>(868)-670-8264"}},{"type":"Feature","geometry":{"type":"Point","coordinates":[-61.380841000000004,10.268712]},"properties":{"name":"Princes Town District Health Facility","description":"Circular Road, Princes Town"}},{"type":"Feature","geometry":{"type":"Point","coordinates":[-61.67739100000001,10.181103]},"properties":{"name":"Point Fortin Area Hospital"}},{"type":"Feature","geometry":{"type":"Point","coordinates":[-61.370476,10.655315]},"properties":{"name":"Caura Hospital (Chest Services)"}},{"type":"Feature","geometry":{"type":"Point","coordinates":[-61.51126,10.707618]},"properties":{"name":"Maraval Health Centre","description":"Saddle Road, Maraval<br>(868)-629-2043"}},{"type":"Feature","geometry":{"type":"Point","coordinates":[-61.563435,10.721982]},"properties":{"name":"Diego Martin Health Centre","description":"Church Street, Diego Martin<br>(868)-637-9308"}},{"type":"Feature","geometry":{"type":"Point","coordinates":[-61.463007,10.650351]},"properties":{"name":"Barataria Health Centre","description":"Eastern Main Road and Seventh Street, Barataria<br>(868)-638-2124"}},{"type":"Feature","geometry":{"type":"Point","coordinates":[-61.20847100000001,10.589472000000002]},"properties":{"name":"Cumuto Health Centre","description":"Main Road, Cumuto<br>(868)-643-9075"}},{"type":"Feature","geometry":{"type":"Point","coordinates":[-61.17971,10.521018]},"properties":{"name":"Coryal Health Centre","description":"Corner Balata Hill Road and Cumuto Main Road, Coryal<br>(868)-668-8066"}},{"type":"Feature","geometry":{"type":"Point","coordinates":[-61.12753300000001,10.58712]},"properties":{"name":"Sangre Grande Health Centre","description":"Henderson Street, Sangre Grande<br>(868)-668-2509"}},{"type":"Feature","geometry":{"type":"Point","coordinates":[-61.131915000000006,10.596464]},"properties":{"name":"Sangre Grande Hospital","description":"Ojoe Road, Sangre Grande"}},{"type":"Feature","geometry":{"type":"Point","coordinates":[-61.20126100000001,10.653802]},"properties":{"name":"Valencia Health Centre","description":"Alexander Street, Valencia<br>(868)-667-8197"}},{"type":"Feature","geometry":{"type":"Point","coordinates":[-61.063921,10.676196]},"properties":{"name":"Matura Health Centre","description":"Matura Main Road, Matura<br>(868)-668-6276"}},{"type":"Feature","geometry":{"type":"Point","coordinates":[-60.946671,10.792891000000001]},"properties":{"name":"Cumana Health Centre","description":"Toco Main Road, Cumana Village, Cumana<br>(868)-670-8250"}},{"type":"Feature","geometry":{"type":"Point","coordinates":[-60.938324,10.836778]},"properties":{"name":"Toco Health Centre","description":"Paria Main Road, Toco<br>(868)-670-8277"}},{"type":"Feature","geometry":{"type":"Point","coordinates":[-61.003212,10.838222]},"properties":{"name":"San Souci Health Centre","description":"Corner Paria Branch Road and George Street<br>(868)-670-2382"}},{"type":"Feature","geometry":{"type":"Point","coordinates":[-61.12315,10.821124]},"properties":{"name":"Matelot Health Centre","description":"Main Road, Matelot<br>(868)-670-2428"}},{"type":"Feature","geometry":{"type":"Point","coordinates":[-61.444709,10.645456]},"properties":{"name":"Aranguez Health Centre","description":"Aranguez Main Road, Aranguez<br>(868)-638-2120"}},{"type":"Feature","geometry":{"type":"Point","coordinates":[-61.448239,10.653876]},"properties":{"name":"San Juan Health Centre","description":"Real Street, San Juan<br>(868)-638-3618"}},{"type":"Feature","geometry":{"type":"Point","coordinates":[-61.06011000000001,10.525208]},"properties":{"name":"Manzanilla Health Centre","description":"Eastern Main Road, Manzanilla<br>(868)-668-2063"}},{"type":"Feature","geometry":{"type":"Point","coordinates":[-61.005771,10.294739]},"properties":{"name":"Mayaro District Health Facility"}},{"type":"Feature","geometry":{"type":"Point","coordinates":[-61.03227100000001,10.147434]},"properties":{"name":"Guayaguayre Health Centre","description":"Guayaguayare<br>(868)-630-8777"}},{"type":"Feature","geometry":{"type":"Point","coordinates":[-61.173342,10.303575]},"properties":{"name":"Rio Claro Health Centre","description":"Corner De Verteuil and Dougdeen Streets, Rio Claro<br>(868)-644-2236"}},{"type":"Feature","geometry":{"type":"Point","coordinates":[-61.132971999999995,10.431773]},"properties":{"name":"Biche Health Centre","description":"Canque Village, Biche<br>(868)-668-9053"}},{"type":"Feature","geometry":{"type":"Point","coordinates":[-61.337944,10.272288]},"properties":{"name":"Indian Walk Health Centre","description":"Petite Cafe, Moruga<br>(868)-655-2478"}},{"type":"Feature","geometry":{"type":"Point","coordinates":[-61.27982900000001,10.087996]},"properties":{"name":"Moruga Health Centre","description":"Lanse Mitan, Moruga<br>(868)-656-7022"}},{"type":"Feature","geometry":{"type":"Point","coordinates":[-61.426336,10.267105]},"properties":{"name":"Ste. Madeleine Health Centre","description":"Manahambre Road, Ste. Madeleine<br>(868)-653-2303"}},{"type":"Feature","geometry":{"type":"Point","coordinates":[-61.460481,10.347442000000001]},"properties":{"name":"Claxton Bay Health Centre","description":"Southern Main Road, Claxton Bay<br>(868)-659-1646"}},{"type":"Feature","geometry":{"type":"Point","coordinates":[-61.338601000000004,10.628891]},"properties":{"name":"Arouca Health Centre","description":"Corner George Street and Golden Grove Road, Arouca<br>(868)-642-1065"}},{"type":"Feature","geometry":{"type":"Point","coordinates":[-61.38196200000001,10.651925]},"properties":{"name":"Tacarigua Health Centre","description":"El Dorado Road, Tunapuna<br>(868)-662-4819"}},{"type":"Feature","geometry":{"type":"Point","coordinates":[-61.622642,10.243567]},"properties":{"name":"La Brea Health Centre","description":"New Lands, La Brea<br>(868)-648-7562"}},{"type":"Feature","geometry":{"type":"Point","coordinates":[-61.731727,10.129934]},"properties":{"name":"Chatham Health Centre","description":"Main Road, Belle View"}},{"type":"Feature","geometry":{"type":"Point","coordinates":[-61.679804999999995,10.173387]},"properties":{"name":"Point Fortin Health Centre","description":"Techier Main Road, Point Fortin<br>(868)-648-2329"}},{"type":"Feature","geometry":{"type":"Point","coordinates":[-61.79952300000001,10.129945]},"properties":{"name":"Granville Health Centre","description":"Syfo Road, Granville<br>(868)-648-2736"}},{"type":"Feature","geometry":{"type":"Point","coordinates":[-61.857818,10.091939]},"properties":{"name":"Cedros Health Centre","description":"St. Marie Street, Bonasse<br>(868)-690-1440"}},{"type":"Feature","geometry":{"type":"Point","coordinates":[-61.914069,10.045987]},"properties":{"name":"Icacos Health Centre","description":"Main Road, Icacos<br>(868)-648-2724"}},{"type":"Feature","geometry":{"type":"Point","coordinates":[-61.65894,10.076443]},"properties":{"name":"Erin Health Centre","description":"Main Road, Buenos Ayres<br>(868)-649-8562"}},{"type":"Feature","geometry":{"type":"Point","coordinates":[-61.59232500000001,10.093273]},"properties":{"name":"Palo Seco Health Centre","description":"Main Road, Palo Seco<br>(868)-649-4482"}},{"type":"Feature","geometry":{"type":"Point","coordinates":[-61.54557400000001,10.181589]},"properties":{"name":"Fyzabad Health Centre","description":"Main Road, Fyzabad<br>(868)-677-2034"}},{"type":"Feature","geometry":{"type":"Point","coordinates":[-61.460277,10.167711]},"properties":{"name":"Penal Health Centre","description":"Southern Main Road, Penal<br>(868)-647-4417"}},{"type":"Feature","geometry":{"type":"Point","coordinates":[-61.45222999999999,10.212003]},"properties":{"name":"Debe Health Centre","description":"Wellington Road, Debe<br>(868)-647-6247"}},{"type":"Feature","geometry":{"type":"Point","coordinates":[-61.50396500000001,10.144635]},"properties":{"name":"Siparia District Health Facility","description":"High Street, Siparia<br>(868)-649-2380"}},{"type":"Feature","geometry":{"type":"Point","coordinates":[-61.34249,10.582274]},"properties":{"name":"St. Helena Health Centre","description":"North Bank Road, St. Helena<br>(868)-669-1183, (868)-669-7027"}},{"type":"Feature","geometry":{"type":"Point","coordinates":[-61.31752999999999,10.619422]},"properties":{"name":"Maloney Health Centre","description":"Maloney Boulevard, Maloney Gardens<br>(868)-642-1330"}},{"type":"Feature","geometry":{"type":"Point","coordinates":[-61.27617800000001,10.594603]},"properties":{"name":"La Horquetta Health Centre","description":"Arthur Murray Crescent, La Horquetta Phase III<br>(868)-643-0911"}},{"type":"Feature","geometry":{"type":"Point","coordinates":[-61.269437999999994,10.516421]},"properties":{"name":"Talparo Health Centre","description":"Talparo Community Centre, Talparo Main Road, Talparo<br>(868)-643-7309"}},{"type":"Feature","geometry":{"type":"Point","coordinates":[-61.272168,10.573125]},"properties":{"name":"San Raphael Health Centre","description":"Talparo Main Road, San Rafael<br>(868)-643-8645"}},{"type":"Feature","geometry":{"type":"Point","coordinates":[-61.320325000000004,10.537228]},"properties":{"name":"Las Lomas Health Centre"}},{"type":"Feature","geometry":{"type":"Point","coordinates":[-61.371217,10.552263]},"properties":{"name":"Cunupia Health Centre","description":"Larchu Trace, Cunupia<br>(868)-665-0183"}},{"type":"Feature","geometry":{"type":"Point","coordinates":[-61.333086,10.483663]},"properties":{"name":"Todd's Road Health Centre","description":"Flecher Road, Todd's Road<br>(868)-671-5176"}},{"type":"Feature","geometry":{"type":"Point","coordinates":[-61.315918,10.429359]},"properties":{"name":"Flanagin Town Health Centre","description":"Main Rd, Flanagin Town<br>(868)-636-2982"}},{"type":"Feature","geometry":{"type":"Point","coordinates":[-61.37204800000001,10.403815]},"properties":{"name":"Gran Couva Health Centre","description":"Main Road, Gran Couva<br>(868)-679-9134"}},{"type":"Feature","geometry":{"type":"Point","coordinates":[-61.426773,10.31711]},"properties":{"name":"Gasparillo Health Centre","description":"Church Street, Gasparillo<br>(868)-650-1020"}},{"type":"Feature","geometry":{"type":"Point","coordinates":[-61.301801,10.390677]},"properties":{"name":"Tabaquite Health Centre","description":"Main Road, Tabaquite<br>(868)-636-2989"}},{"type":"Feature","geometry":{"type":"Point","coordinates":[-61.276191,10.337027]},"properties":{"name":"Brothers Road Health Centre","description":"Torrib Road, Tabaquite<br>(868)-656-2547"}},{"type":"Feature","geometry":{"type":"Point","coordinates":[-61.392824999999995,10.784813]},"properties":{"name":"Las Cuevas Health Centre","description":"School Road, Las Cuevas<br>(868)-669-6302"}},{"type":"Feature","geometry":{"type":"Point","coordinates":[-61.510874,10.660513000000002]},"properties":{"name":"Pembroke Street Health Centre (Mental Health)"}},{"type":"Feature","geometry":{"type":"Point","coordinates":[-60.732347,11.179739]},"properties":{"name":"Scarborough Health centre","description":"Scarborough<br>(868)-639-2612"}},{"type":"Feature","geometry":{"type":"Point","coordinates":[-60.713008,11.217406]},"properties":{"name":"Mason Hall Health Centre","description":"Mason Hall<br>(868)-639-4445"}},{"type":"Feature","geometry":{"type":"Point","coordinates":[-60.695112,11.279822]},"properties":{"name":"Castara Health Centre","description":"Castara<br>(868)-639-2194"}},{"type":"Feature","geometry":{"type":"Point","coordinates":[-60.740238,11.227756]},"properties":{"name":"Les Coteaux Health Centre","description":"Les Coteaux<br>(868)-639-0069"}},{"type":"Feature","geometry":{"type":"Point","coordinates":[-60.80537300000001,11.181254]},"properties":{"name":"Buccoo Health Centre","description":"Buccoo<br>(868)-639-0750"}},{"type":"Feature","geometry":{"type":"Point","coordinates":[-60.815312999999996,11.159998000000002]},"properties":{"name":"Canaan Health Centre","description":"Canaan<br>(868)-639-8829"}},{"type":"Feature","geometry":{"type":"Point","coordinates":[-60.727052,11.178455]},"properties":{"name":"Scarborough Regional Hospital"}},{"type":"Feature","geometry":{"type":"Point","coordinates":[-60.58167600000001,11.249176]},"properties":{"name":"Roxborough Health Centre","description":"Roxborough<br>(868)-660-5155"}},{"type":"Feature","geometry":{"type":"Point","coordinates":[-60.600693,11.230582]},"properties":{"name":"Belle Garden Health Centre","description":"Belle Garden<br>(868)-660-5606"}},{"type":"Feature","geometry":{"type":"Point","coordinates":[-60.625659000000006,11.212297]},"properties":{"name":"Pembroke Health Centre","description":"Pembroke<br>(868)-660-5661"}},{"type":"Feature","geometry":{"type":"Point","coordinates":[-60.676932,11.1947]},"properties":{"name":"Mt. St. George Health Centre","description":"Mt. St. George<br>(868)-660-2119"}},{"type":"Feature","geometry":{"type":"Point","coordinates":[-60.716468000000006,11.248813]},"properties":{"name":"Moriah Health Centre","description":"Moriah<br>(868)-660-0092"}},{"type":"Feature","geometry":{"type":"Point","coordinates":[-60.77825,11.220831]},"properties":{"name":"Plymouth Health Centre","description":"Plymouth<br>(868)-639-2982"}},{"type":"Feature","geometry":{"type":"Point","coordinates":[-60.780910999999996,11.205066000000002]},"properties":{"name":"Black Rock Outreach Centre"}},{"type":"Feature","geometry":{"type":"Point","coordinates":[-60.78565300000001,11.181565]},"properties":{"name":"Bethel Health Centre","description":"Bethel<br>(868)-639-8580"}},{"type":"Feature","geometry":{"type":"Point","coordinates":[-60.534684,11.299244]},"properties":{"name":"Speyside Health Centre","description":"Speyside<br>(868)-660-4044"}},{"type":"Feature","geometry":{"type":"Point","coordinates":[-60.54854,11.323057]},"properties":{"name":"Charlotteville Health Centre","description":"Charlotteville<br>(868)-660-4392"}},{"type":"Feature","geometry":{"type":"Point","coordinates":[-60.565250999999996,11.258878]},"properties":{"name":"Delaford Health Centre","description":"Delaford<br>(868)-660-5566"}},{"type":"Feature","geometry":{"type":"Point","coordinates":[-60.74348899999999,11.181275]},"properties":{"name":"Tobago Regional Health Authority"}},{"type":"Feature","geometry":{"type":"Point","coordinates":[-61.646910000000005,10.180868]},"properties":{"name":"Guapo Health Centre","description":"Hubertson Young Street, Guapo<br>(868)-648-2208"}},{"type":"Feature","geometry":{"type":"Point","coordinates":[-61.423788,10.649853]},"properties":{"name":"St. Joseph Enhanced Health Centre"}},{"type":"Feature","geometry":{"type":"Point","coordinates":[-61.478134999999995,10.66327]},"properties":{"name":"Morvant Health Centre","description":"Lots A-B 212 Lady Young Avenue, Morvant"}},{"type":"Feature","geometry":{"type":"Point","coordinates":[-61.314035000000004,10.798377]},"properties":{"name":"Blanchisseuse Health Centre"}},{"type":"Feature","geometry":{"type":"Point","coordinates":[-61.47064099999999,10.716956]},"properties":{"name":"Santa Cruz Health Centre"}},{"type":"Feature","geometry":{"type":"Point","coordinates":[-60.75332199999999,11.180254]},"properties":{"name":"Scarborough General Hospital"}}]}
